{
"type": "FeatureCollection",                                                    
"features": [
{ "type": "Feature", "properties": { "osm_id": 579544683.000000,  "amenity": null, "historic": null, "leisure": "swimming_pool", "name": null, "natural": null, "poi": "sport", "shop": null, "sport": "swimming", "tourism": null, "tags": null }, "geometry": { "type": "Point", "coordinates": [ 153.371300600000012, -28.0455141 ] } },
{ "type": "Feature", "properties": { "osm_id": 185876298.000000,  "amenity": null, "historic": null, "leisure": null, "name": "Burleigh Bears", "natural": null, "poi": "sport", "shop": null, "sport": "rugby", "tourism": null, "tags": null }, "geometry": { "type": "Point", "coordinates": [ 153.430533700000012, -28.0630624 ] } },
{ "type": "Feature", "properties": { "osm_id": 185876616.000000,  "amenity": "swimming_pool", "historic": null, "leisure": null, "name": "Miami Aquatic Centre", "natural": null, "poi": "sport", "shop": null, "sport": "swimming", "tourism": null, "tags": null }, "geometry": { "type": "Point", "coordinates": [ 153.430212399999988, -28.0620983 ] } },
{ "type": "Feature", "properties": { "osm_id": 5207470684.000000, "amenity": null, "historic": null, "leisure": null, "name": "Gold Coast Triathlete", "natural": null, "poi": "sport", "shop": "sports", "sport": "bicycle", "tourism": null, "tags": "\"phone\"=>\"+61 7 5572 0775\", \"sport_1\"=>\"running\", \"sport_2\"=>\"swimming\", \"addr:city\"=>\"Miami\", \"addr:unit\"=>\"1\", \"addr:street\"=>\"Pacific Avenue\", \"addr:postcode\"=>\"4220\", \"addr:housenumber\"=>\"38\"" }, "geometry": { "type": "Point", "coordinates": [ 153.4351494, -28.0635378 ] } },
{ "type": "Feature", "properties": { "osm_id": 2538839134.000000, "amenity": null, "historic": null, "leisure": "sports_centre", "name": "Mermaid Beach Bowls Club", "natural": null, "poi": "sport", "shop": null, "sport": "bowls", "tourism": null, "tags": null }, "geometry": { "type": "Point", "coordinates": [ 153.433911099999989, -28.0481255 ] } },
{ "type": "Feature", "properties": { "osm_id": 5259126822.000000, "amenity": null, "historic": null, "leisure": "sports_centre", "name": "Snooker World", "natural": null, "poi": "sport", "shop": null, "sport": "billiards", "tourism": null, "tags": "\"level\"=>\"0\", \"phone\"=>\"+61 7 5572 0877\", \"website\"=>\"http:\/\/snookerworld.com.au\/index.php\/contact\/\", \"addr:city\"=>\"Mermaid Beach\", \"addr:street\"=>\"Gold Coast Highway\", \"addr:postcode\"=>\"4218\", \"addr:housenumber\"=>\"2520\"" }, "geometry": { "type": "Point", "coordinates": [ 153.4337207, -28.0419286 ] } },
{ "type": "Feature", "properties": { "osm_id": 3579538499.000000, "amenity": null, "historic": null, "leisure": "sports_centre", "name": "Emerald Lakes Tennis Center", "natural": null, "poi": "sport", "shop": null, "sport": "tennis", "tourism": null, "tags": "\"addr:city\"=>\"Surfers paradise\", \"addr:street\"=>\"Alabaster Drive\", \"addr:postcode\"=>\"4211\", \"addr:housenumber\"=>\"3\"" }, "geometry": { "type": "Point", "coordinates": [ 153.367057, -28.0103689 ] } },
{ "type": "Feature", "properties": { "osm_id": 4087694689.000000, "amenity": null, "historic": null, "leisure": null, "name": null, "natural": null, "poi": "sport", "shop": null, "sport": "cricket", "tourism": null, "tags": null }, "geometry": { "type": "Point", "coordinates": [ 153.3854293, -27.9948756 ] } },
{ "type": "Feature", "properties": { "osm_id": 4223280475.000000, "amenity": null, "building": "commercial", "historic": null, "leisure": "ice_rink", "name": "Gold Coast Iceland", "natural": null, "poi": "sport", "shop": null, "sport": "ice_skating", "tourism": null, "tags": "\"phone\"=>\"+61755399899\", \"website\"=>\"http:\/\/www.goldcoasticeland.com.au\", \"seasonal\"=>\"no\", \"addr:city\"=>\"Bundall\", \"wheelchair\"=>\"yes\", \"addr:street\"=>\"Strathaird Road\", \"addr:postcode\"=>\"4217\", \"opening_hours\"=>\"1030-1200 7 days, 1300-1530 7 days, 1600" }, "geometry": { "type": "Point", "coordinates": [ 153.4018222, -28.0077901 ] } },
{ "type": "Feature", "properties": { "osm_id": 4251799698.000000, "amenity": null, "historic": null, "leisure": "sports_centre", "name": "Centrepoint Health Club", "natural": null, "poi": "sport", "shop": null, "sport": "fitness", "tourism": null, "tags": "\"addr:city\"=>\"Bundall\", \"addr:street\"=>\"Corporate Court\", \"addr:postcode\"=>\"4217\", \"addr:housenumber\"=>\"6\"" }, "geometry": { "type": "Point", "coordinates": [ 153.413442800000013, -27.9986153 ] } },
{ "type": "Feature", "properties": { "osm_id": 4836132390.000000, "amenity": null, "building": "commercial", "historic": null, "leisure": "ice_rink", "name": "Planet Chill Ice Rink", "natural": null, "operator": "Paradise Resort", "poi": "sport", "shop": null, "sport": "skating", "tourism": null, "tags": "\"website\"=>\"http:\/\/www.paradiseresort.com.au\/play\/planet_chill\/\", \"seasonal\"=>\"no\", \"addr:city\"=>\"Surfers Paradise\", \"addr:street\"=>\"Ferny Ave\", \"description\"=>\"Australia's newest skating rink is open at Paradise Resort Gold Coast with REAL ice!\", \"addr:" }, "geometry": { "type": "Point", "coordinates": [ 153.427127500000012, -27.9933338 ] } },
{ "type": "Feature", "properties": { "osm_id": 4331914854.000000, "amenity": null, "historic": null, "leisure": "sports_centre", "name": "SSAA Southport", "natural": null, "poi": "sport", "shop": null, "sport": "shooting", "tourism": null, "tags": "\"phone\"=>\"07 55913777\", \"website\"=>\"http:\/\/ssaasouthport.simplesite.com\/\", \"addr:city\"=>\"Southport\", \"addr:street\"=>\"Hinde Street\", \"addr:postcode\"=>\"4215\", \"addr:housenumber\"=>\"11\"" }, "geometry": { "type": "Point", "coordinates": [ 153.3871843, -27.9789505 ] } },
{ "type": "Feature", "properties": { "osm_id": 2297721396.000000, "amenity": null, "historic": null, "leisure": "sports_centre", "name": "Gold Coast Pistol Club", "natural": null, "poi": "sport", "shop": null, "sport": "shooting", "tourism": null, "tags": null }, "geometry": { "type": "Point", "coordinates": [ 153.3845409, -27.9693657 ] } },
{ "type": "Feature", "properties": { "osm_id": 3783795573.000000, "amenity": "swimming_pool", "historic": null, "leisure": null, "name": "St Hida's Aquatics Club", "natural": null, "poi": "sport", "shop": null, "sport": "swimming", "tourism": null, "tags": null }, "geometry": { "type": "Point", "coordinates": [ 153.4058758, -27.9690529 ] } },
{ "type": "Feature", "properties": { "osm_id": 348996245.000000,  "amenity": null, "historic": null, "leisure": "sports_centre", "name": "Southport Squash", "natural": null, "poi": "sport", "shop": "sports", "sport": "squash", "tourism": null, "tags": "\"addr:street\"=>\"Nerang Street\", \"addr:postcode\"=>\"4215\", \"addr:housenumber\"=>\"69\"" }, "geometry": { "type": "Point", "coordinates": [ 153.4085366, -27.9659004 ] } },
{ "type": "Feature", "properties": { "osm_id": 4768475922.000000, "amenity": null, "historic": null, "leisure": "pitch", "name": null, "natural": null, "poi": "sport", "shop": null, "sport": "volleyball", "tourism": null, "tags": null }, "geometry": { "type": "Point", "coordinates": [ 153.418092800000011, -27.9654406 ] } },
{ "type": "Feature", "properties": { "osm_id": 3827739805.000000, "amenity": "swimming_pool", "covered": "no", "historic": null, "leisure": null, "name": "Broadwater Parkland", "natural": null, "poi": "sport", "shop": null, "sport": "swimming", "tourism": null, "tags": null }, "geometry": { "type": "Point", "coordinates": [ 153.4159448, -27.9637511 ] } },
{ "type": "Feature", "properties": { "osm_id": 348996246.000000,  "amenity": null, "historic": null, "leisure": "sports_centre", "name": "Labrador Squash", "natural": null, "poi": "sport", "shop": "sports", "sport": "squash", "tourism": null, "tags": "\"addr:street\"=>\"Turpin Road\", \"addr:postcode\"=>\"4215\", \"addr:housenumber\"=>\"230\"" }, "geometry": { "type": "Point", "coordinates": [ 153.403795800000012, -27.9370468 ] } }
]
}
